<?xml version="1.0" encoding="UTF-8"?>
<kml xmlns="http://www.opengis.net/kml/2.2">
	<Document>
		<Style id="walk-up-atm-Selected">
			<IconStyle>
				<Icon>
					<href>http://www.bankmidwest.com.demo4.flyinghippo.com/wp-content/themes/bankmidwest/images/kml/Pin_walk-up-atm-Selected.png</href>
				</Icon>
			</IconStyle>
		</Style>
		<Style id="walk-up-atm">
			<IconStyle>
				<Icon>
					<href>http://www.bankmidwest.com.demo4.flyinghippo.com/wp-content/themes/bankmidwest/images/kml/Pin_walk-up-atm.png</href>
				</Icon>
			</IconStyle>
		</Style>

		<Placemark id="walk-up-atm_768">
			<styleUrl>#walk-up-atm</styleUrl>
			<name>AGCO</name>
			<description>AGCO</description>
			<Point>
				<coordinates>-94.97681639999996,43.640724</coordinates>
			</Point>
		</Placemark>
	
		<Placemark id="walk-up-atm_757">
			<styleUrl>#walk-up-atm</styleUrl>
			<name>Fairmont Municipal Liquor</name>
			<description>Fairmont Municipal Liquor</description>
			<Point>
				<coordinates>-94.44577279999999,43.6713761</coordinates>
			</Point>
		</Placemark>
	
		<Placemark id="walk-up-atm_395">
			<styleUrl>#walk-up-atm</styleUrl>
			<name>Jackson, MN</name>
			<description>Jackson, MN</description>
			<Point>
				<coordinates>-94.98904600000003,43.621924</coordinates>
			</Point>
		</Placemark>
	
		<Placemark id="walk-up-atm_772">
			<styleUrl>#walk-up-atm</styleUrl>
			<name>New Ulm, MN</name>
			<description>New Ulm, MN</description>
			<Point>
				<coordinates>-94.460015,44.311366</coordinates>
			</Point>
		</Placemark>
	
		<Placemark id="walk-up-atm_780">
			<styleUrl>#walk-up-atm</styleUrl>
			<name>Sherburn, MN</name>
			<description>Sherburn, MN</description>
			<Point>
				<coordinates>-94.72783219999997,43.6532336</coordinates>
			</Point>
		</Placemark>
	
		<Placemark id="walk-up-atm_1780">
			<styleUrl>#walk-up-atm</styleUrl>
			<name>Westbrook, MN</name>
			<description>Westbrook, MN</description>
			<Point>
				<coordinates>-95.4360337,44.0424855</coordinates>
			</Point>
		</Placemark>
	
	</Document>
</kml>